City_id,City,Country,Lat,Lng,Max Temp,Humidity,Cloudiness,Wind Speed,Current Descrption
0,Port Alfred,ZA,-33.5906,26.891,65.19,87,6,12.62,clear sky
1,San Quintin,MX,30.4833,-115.95,68.13,73,0,6.13,clear sky
2,Kloulklubed,PW,7.0419,134.2556,79.3,79,100,14.0,light rain
3,New Norfolk,AU,-42.7826,147.0587,51.93,61,66,3.0,broken clouds
4,Chuy,UY,-33.6971,-53.4616,72.32,72,99,13.04,overcast clouds
5,Ostrovnoy,RU,68.0531,39.5131,31.91,84,97,10.22,overcast clouds
6,Hilo,US,19.7297,-155.09,82.27,68,1,5.75,clear sky
7,Chokurdakh,RU,70.6333,147.9167,-5.58,98,99,6.17,overcast clouds
8,Charters Towers,AU,-20.1,146.2667,72.05,82,3,7.29,clear sky
9,Vaini,TO,-21.2,-175.2,71.76,94,20,3.44,few clouds
10,Bethel,US,41.3712,-73.414,63.01,93,90,8.05,overcast clouds
11,Katsuura,JP,35.1333,140.3,57.31,60,43,4.36,scattered clouds
12,Punta Arenas,CL,-53.15,-70.9167,51.91,43,0,18.41,clear sky
13,Ushuaia,AR,-54.8,-68.3,49.66,53,0,13.8,clear sky
14,Rikitea,PF,-23.1203,-134.9692,74.89,84,73,20.69,light rain
15,Quatre Cocos,MU,-20.2078,57.7625,73.51,76,46,2.13,scattered clouds
16,Bluff,NZ,-46.6,168.3333,52.88,64,19,18.88,few clouds
17,Bani,DO,18.2833,-70.3333,87.24,57,6,8.48,clear sky
18,Lebu,CL,-37.6167,-73.65,55.24,68,91,19.22,overcast clouds
19,Vidim,RU,56.4088,103.1106,32.79,76,100,6.42,overcast clouds
20,Nikolskoye,RU,59.7035,30.7861,45.88,92,74,6.91,broken clouds
21,Manzanillo,CU,20.3433,-77.1167,89.65,53,73,9.22,broken clouds
22,Bambous Virieux,MU,-20.3428,57.7575,73.65,78,40,4.61,scattered clouds
23,Cape Town,ZA,-33.9258,18.4232,67.12,68,0,4.0,clear sky
24,Puerto Ayora,EC,-0.7393,-90.3518,78.76,80,78,9.26,broken clouds
25,Yellowknife,CA,62.456,-114.3525,28.42,93,40,7.0,scattered clouds
26,Madingou,CG,-4.1536,13.55,82.83,65,86,2.91,overcast clouds
27,Mataura,NZ,-46.1927,168.8643,47.8,67,12,5.73,few clouds
28,Cherskiy,RU,68.75,161.3,-4.05,99,100,4.85,overcast clouds
29,Cidreira,BR,-30.1811,-50.2056,71.65,77,68,21.85,broken clouds
30,Tornio,FI,65.8481,24.1466,42.82,97,100,13.15,overcast clouds
31,Greeley,US,40.4233,-104.7091,73.65,32,1,4.0,clear sky
32,Jamestown,US,42.097,-79.2353,52.95,95,90,1.99,overcast clouds
33,Seoul,KR,37.5683,126.9778,51.24,93,0,2.3,clear sky
34,Salalah,OM,17.0151,54.0924,82.49,74,0,8.05,clear sky
35,Haifa,IL,32.8156,34.9892,74.34,69,0,4.61,clear sky
36,Fortuna,US,40.5982,-124.1573,61.14,76,90,1.01,overcast clouds
37,Mar Del Plata,AR,-38.0023,-57.5575,84.22,92,40,18.99,scattered clouds
38,Hithadhoo,MV,-0.6,73.0833,82.76,76,57,15.75,broken clouds
39,Muhlhausen,DE,51.2167,10.45,53.64,69,100,5.12,overcast clouds
40,Arraial Do Cabo,BR,-22.9661,-42.0278,75.06,73,90,8.05,overcast clouds
41,Kavieng,PG,-2.5744,150.7967,82.96,75,50,13.18,scattered clouds
42,Kantemirovka,RU,49.7089,39.8592,45.72,66,19,3.15,few clouds
43,Boralday,KZ,43.3578,76.8594,39.06,93,40,2.24,mist
44,Busselton,AU,-33.65,115.3333,46.04,90,55,7.4,broken clouds
45,Bredasdorp,ZA,-34.5322,20.0403,64.27,79,37,7.49,scattered clouds
46,Atuona,PF,-9.8,-139.0333,77.43,69,16,17.05,few clouds
47,East London,ZA,-33.0153,27.9116,63.54,88,0,12.66,clear sky
48,Salinas,US,36.6777,-121.6555,65.05,85,90,3.44,mist
49,Zyryanka,RU,65.75,150.85,2.5,95,100,8.41,overcast clouds
50,Kapaa,US,22.0752,-159.319,71.58,98,1,8.05,clear sky
51,Butaritari,KI,3.0707,172.7902,81.1,78,95,8.7,light rain
52,Vestmannaeyjar,IS,63.4427,-20.2734,45.59,76,0,2.3,clear sky
53,Saint George,US,37.1041,-113.5841,73.54,47,1,0.0,clear sky
54,Russell,US,32.3502,-85.1999,61.12,70,90,10.36,overcast clouds
55,Kungurtug,RU,50.5994,97.5228,28.31,67,38,2.77,scattered clouds
56,Banjar,ID,-8.19,114.9675,78.66,89,100,2.17,overcast clouds
57,Bandarbeyla,SO,9.4942,50.8122,79.57,77,17,13.27,few clouds
58,Acarau,BR,-2.8856,-40.12,86.02,60,63,15.05,broken clouds
59,Asau,RO,46.4333,26.4,48.76,89,1,1.41,clear sky
60,Kununurra,AU,-15.7667,128.7333,82.38,74,78,0.0,broken clouds
61,Chihuahua,MX,28.5,-106.0,70.27,26,0,2.17,clear sky
62,Albany,US,42.6001,-73.9662,57.78,91,99,1.01,overcast clouds
63,Touros,BR,-5.1989,-35.4608,88.7,60,70,16.46,broken clouds
64,Torbay,CA,47.6666,-52.7314,52.75,51,20,9.22,few clouds
65,Kampong Thum,KH,12.7111,104.8887,76.1,93,80,4.68,broken clouds
66,Nioro,GM,13.35,-15.75,76.42,80,100,9.75,overcast clouds
67,Saskylakh,RU,71.9167,114.0833,8.04,92,100,10.45,overcast clouds
68,Isangel,VU,-19.55,169.2667,74.23,84,2,5.88,clear sky
69,Saint-Michel-Des-Saints,CA,46.6834,-73.9159,44.94,69,100,8.21,overcast clouds
70,Georgetown,MY,5.4112,100.3354,77.9,94,40,2.3,scattered clouds
71,Kochi,IN,9.9399,76.2602,76.98,88,100,2.44,overcast clouds
72,Hermanus,ZA,-34.4187,19.2345,66.9,79,56,11.61,broken clouds
73,Demyansk,RU,57.643,32.466,49.82,79,44,9.28,scattered clouds
74,Mount Gambier,AU,-37.8333,140.7667,41.74,97,9,4.54,clear sky
75,Avarua,CK,-21.2078,-159.775,71.65,73,100,11.5,overcast clouds
76,Coquimbo,CL,-29.9533,-71.3436,62.33,72,20,6.91,few clouds
77,Itapirapua,BR,-15.8233,-50.6133,96.21,30,98,7.61,overcast clouds
78,Kozmodemyansk,RU,56.3367,46.5711,47.23,93,100,8.88,overcast clouds
79,Barrow,US,71.2906,-156.7887,15.82,79,90,4.61,light snow
80,Maltahohe,NA,-24.8333,16.9833,79.79,5,0,17.49,clear sky
81,Moose Factory,CA,51.2585,-80.6094,44.6,93,90,4.61,overcast clouds
82,Manali,IN,13.1667,80.2667,80.69,80,88,7.65,overcast clouds
83,Dikson,RU,73.5069,80.5464,8.56,91,100,17.4,overcast clouds
84,Saldanha,ZA,-33.0117,17.9442,66.25,83,71,16.87,broken clouds
85,Gat,IL,31.61,34.7642,74.39,62,49,5.28,scattered clouds
86,Kiunga,PG,-6.1219,141.2906,72.7,99,79,1.23,broken clouds
87,Gamba,GA,-2.65,10.0,77.38,89,99,9.62,light rain
88,Constitucion,CL,-35.3333,-72.4167,66.65,58,100,14.2,overcast clouds
89,Itabira,BR,-19.6192,-43.2269,75.02,74,89,3.96,overcast clouds
90,Pocone,BR,-16.2567,-56.6228,101.5,28,43,5.5,scattered clouds
91,Ribeira Grande,PT,38.5167,-28.7,70.2,88,75,23.02,broken clouds
92,Rocha,UY,-34.4833,-54.3333,73.83,70,100,11.56,overcast clouds
93,Hualmay,PE,-11.0964,-77.6139,68.41,72,50,7.87,scattered clouds
94,Tuktoyaktuk,CA,69.4541,-133.0374,17.6,93,75,6.91,broken clouds
95,Qandala,SO,11.472,49.8728,82.44,72,29,14.36,light rain
96,Kasongo-Lunda,CD,-6.4667,16.8167,77.31,77,77,2.24,broken clouds
97,Luderitz,NA,-26.6481,15.1594,64.06,77,1,8.75,clear sky
98,Iqaluit,CA,63.7506,-68.5145,37.13,69,90,20.0,light rain
99,Melilla,ES,35.2937,-2.9383,73.6,53,0,8.05,clear sky
100,Half Moon Bay,US,37.4636,-122.4286,64.98,92,90,4.61,overcast clouds
101,Kalmunai,LK,7.4167,81.8167,79.21,83,74,6.71,broken clouds
102,The Valley,AI,18.217,-63.0578,87.66,65,20,13.8,few clouds
103,Bam,IR,29.106,58.357,71.26,22,27,2.86,scattered clouds
104,Pontianak,ID,-0.0333,109.3333,78.78,94,90,1.14,light rain
105,Saint-Philippe,RE,-21.3585,55.7679,72.99,81,72,3.89,broken clouds
106,Sao Filipe,CV,14.8961,-24.4956,80.73,72,93,10.54,overcast clouds
107,Ancud,CL,-41.8697,-73.8203,58.53,47,0,3.89,clear sky
108,Mahibadhoo,MV,3.7833,72.9667,82.49,72,75,11.95,broken clouds
109,Hobart,AU,-42.8794,147.3294,52.27,69,66,4.0,broken clouds
110,Ifo,NG,6.8144,3.1958,85.62,74,98,5.39,light rain
111,Lompoc,US,34.6391,-120.4579,59.92,89,90,5.75,overcast clouds
112,Moranbah,AU,-22.0016,148.0466,77.25,63,42,6.4,scattered clouds
113,Moba,CN,33.2288,105.0179,46.58,81,100,5.3,overcast clouds
114,Henties Bay,NA,-22.116,14.2845,59.86,83,7,7.9,clear sky
115,Qaanaaq,GL,77.484,-69.3632,1.71,54,0,8.55,clear sky
116,Cabo San Lucas,MX,22.8909,-109.9124,85.6,61,1,3.44,clear sky
117,Shu,KZ,43.5983,73.7614,47.91,64,54,3.62,broken clouds
118,Tilichiki,RU,60.4667,166.1,5.95,95,50,8.03,scattered clouds
119,Geraldton,AU,-28.7667,114.6,55.13,87,0,6.91,clear sky
120,Bengkulu,ID,-3.8004,102.2655,76.95,91,100,4.61,moderate rain
121,Vao,NC,-22.6667,167.4833,70.47,75,15,7.87,few clouds
122,Kaeo,NZ,-35.1,173.7833,62.33,96,100,14.32,overcast clouds
123,Mpongwe,ZM,-13.5091,28.155,84.85,22,56,4.18,broken clouds
124,Kiruna,SE,67.8557,20.2251,29.32,100,90,3.44,overcast clouds
125,Alice Springs,AU,-23.7,133.8833,60.35,63,90,13.8,overcast clouds
126,Ponta Do Sol,PT,32.6667,-17.1,79.0,76,81,9.75,broken clouds
127,Clyde River,CA,70.4692,-68.5914,30.43,100,90,17.27,snow
128,Laguna,US,38.421,-121.4238,68.02,86,20,5.01,few clouds
129,Zharkent,KZ,44.1628,80.0,44.89,79,87,3.8,overcast clouds
130,Msanga,TZ,-6.05,36.0333,79.23,46,59,10.29,broken clouds
131,Provideniya,RU,64.3833,-173.3,12.34,86,95,12.12,overcast clouds
132,Manjeshwar,IN,12.7194,74.8861,79.75,87,99,4.32,overcast clouds
133,Damghan,IR,36.1683,54.348,57.18,52,72,4.74,broken clouds
134,Upernavik,GL,72.7868,-56.1549,25.63,56,100,7.25,overcast clouds
135,Hirara,JP,24.8,125.2833,75.07,76,66,13.27,broken clouds
136,Tessalit,ML,20.1986,1.0114,95.94,10,54,3.38,broken clouds
137,Lagoa,PT,39.05,-27.9833,70.18,89,100,24.25,overcast clouds
138,Havre-Saint-Pierre,CA,50.2334,-63.5986,55.99,35,1,4.61,clear sky
139,Bathsheba,BB,13.2167,-59.5167,86.61,62,20,16.11,few clouds
140,Gastonia,US,35.2621,-81.1873,61.16,75,90,1.99,overcast clouds
141,Ballina,AU,-28.8667,153.5667,66.78,99,95,6.26,overcast clouds
142,Marienburg,PL,54.0359,19.0266,53.89,75,42,10.16,scattered clouds
143,Pisco,PE,-13.7,-76.2167,65.01,82,90,8.05,overcast clouds
144,Arkhangelsk,RU,64.5401,40.5433,35.71,100,90,2.24,light rain
145,Port Blair,IN,11.6667,92.75,81.18,80,96,2.39,overcast clouds
146,Chaihe,CN,44.7667,129.7,39.87,58,100,4.88,overcast clouds
147,Petropavlovka,RU,50.6114,105.3196,30.63,69,22,2.55,few clouds
148,Carnarvon,AU,-24.8667,113.6333,68.07,68,0,18.41,clear sky
149,Kochubey,RU,44.3861,46.5825,48.78,88,0,8.08,clear sky
150,Piranhas,BR,-16.4269,-51.8222,96.53,31,86,3.98,overcast clouds
151,Bonavista,CA,48.6499,-53.1147,51.8,67,13,9.26,few clouds
152,Salair,RU,54.2312,85.7972,27.14,92,93,7.4,overcast clouds
153,Poum,NC,-20.2333,164.0167,74.35,75,10,4.47,clear sky
154,Port Elizabeth,ZA,-33.918,25.5701,62.1,94,0,11.5,clear sky
155,Nouadhibou,MR,20.931,-17.0347,71.58,78,5,17.27,clear sky
156,Mahebourg,MU,-20.4081,57.7,73.69,78,40,4.61,scattered clouds
157,Capreol,CA,46.706,-80.9225,53.55,62,75,3.0,broken clouds
158,Laguna De Perlas,NI,12.3429,-83.6712,87.89,80,89,10.38,overcast clouds
159,Warwick,US,41.7001,-71.4162,63.95,95,90,5.75,fog
160,Virtsu,EE,58.5716,23.5115,47.98,93,87,15.35,overcast clouds
161,Chulman,RU,56.8479,124.9104,-0.98,98,24,2.55,few clouds
162,Talnakh,RU,69.4865,88.3972,18.05,96,100,2.75,light snow
163,Komsomolets,KZ,53.7453,62.0708,39.0,79,100,19.66,overcast clouds
164,Boguchany,RU,58.3814,97.4531,26.96,64,85,10.51,overcast clouds
165,Yebaishou,CN,41.3975,119.6408,45.34,68,100,8.57,overcast clouds
166,Sungaipenuh,ID,-2.0833,101.3833,66.78,97,100,0.43,light rain
167,Hami,CN,42.8,93.45,52.2,38,99,2.39,overcast clouds
168,Pacific Grove,US,36.6177,-121.9166,64.63,91,75,1.99,broken clouds
169,Ahipara,NZ,-35.1667,173.1667,62.53,97,100,16.26,light rain
170,Chernyshevskiy,RU,63.0128,112.4714,25.11,96,100,7.87,light snow
171,Tigil,RU,57.8,158.6667,25.95,92,100,5.68,overcast clouds
172,Alyangula,AU,-13.8483,136.4192,80.04,79,78,4.83,broken clouds
173,Grottammare,IT,42.9888,13.8649,58.8,83,10,1.74,clear sky
174,Kulhudhuffushi,MV,6.6221,73.07,80.4,81,98,7.02,overcast clouds
175,Iraray,PH,8.9936,118.0511,78.85,89,81,5.48,broken clouds
176,Camacha,PT,33.0833,-16.3333,75.52,83,40,11.5,scattered clouds
177,Randolph,US,35.7001,-79.8164,59.4,71,90,5.75,overcast clouds
178,Palauig,PH,15.435,119.9045,79.79,76,66,3.31,broken clouds
179,Bilibino,RU,68.0546,166.4372,-8.88,99,100,1.43,overcast clouds
180,Hare Bay,CA,48.8499,-54.0148,54.75,38,7,1.92,clear sky
181,Bashtanka,UA,47.4072,32.4387,49.68,60,0,8.23,clear sky
182,Carandai,BR,-20.9536,-43.8064,71.64,73,98,7.43,overcast clouds
183,Hay River,CA,60.8156,-115.7999,28.38,86,40,9.22,scattered clouds
184,Eyl,SO,7.9803,49.8164,79.47,74,3,13.33,clear sky
185,Churapcha,RU,62.0025,132.4325,-10.46,100,93,3.04,overcast clouds
186,Lunavada,IN,23.1333,73.6167,71.64,37,54,6.71,broken clouds
187,Kearney,US,40.6995,-99.0815,62.19,44,1,18.41,clear sky
188,Sistranda,NO,63.7256,8.834,52.9,80,71,9.84,broken clouds
189,Nome,US,64.5011,-165.4064,8.67,78,1,3.44,clear sky
190,Kahului,US,20.8947,-156.47,75.85,80,1,5.75,clear sky
191,Klaksvik,FO,62.2266,-6.589,47.32,89,100,15.46,overcast clouds
192,Dulce Nombre De Culmi,HN,15.1,-85.5333,88.03,52,50,4.97,scattered clouds
193,Purpe,RU,64.4803,76.6897,11.98,91,99,19.44,overcast clouds
194,Tasiilaq,GL,65.6145,-37.6368,26.76,64,18,6.78,few clouds
195,Santa Cruz,BO,-17.8,-63.1667,92.66,65,75,10.36,broken clouds
196,Cochabamba,BO,-17.3895,-66.1568,85.75,19,20,8.05,few clouds
197,Kurmanayevka,RU,52.5093,52.0675,43.38,88,53,11.45,broken clouds
198,Marathon,US,44.9,-89.7668,54.36,78,20,1.01,few clouds
199,Guadalajara,MX,20.6667,-103.3333,72.99,72,90,2.19,overcast clouds
200,Tura,IN,25.5198,90.2201,65.23,66,0,2.39,clear sky
201,Faya,SA,18.3851,42.4509,66.72,36,44,10.47,scattered clouds
202,Nuuk,GL,64.1835,-51.7216,39.81,65,75,28.77,broken clouds
203,Jinan,CN,36.6683,116.9972,62.98,72,66,2.48,broken clouds
204,Coihaique,CL,-45.5752,-72.0662,57.81,30,20,3.44,few clouds
205,Stokmarknes,NO,68.5646,14.9108,45.5,88,100,5.3,light rain
206,Yagodnoye,RU,62.55,149.6667,3.18,94,100,2.93,overcast clouds
207,Mangai,CD,-4.05,19.5333,75.4,75,53,2.68,broken clouds
208,Korla,CN,41.7597,86.1469,54.43,29,100,6.24,overcast clouds
209,Fairbanks,US,64.8378,-147.7164,28.36,86,20,9.22,few clouds
210,Matara,LK,5.9485,80.5353,77.27,91,98,4.56,overcast clouds
211,Dongkan,CN,33.9997,119.8308,58.03,71,0,6.33,light rain
212,Dudinka,RU,69.4058,86.1778,16.21,96,100,5.86,light snow
213,Rio Gallegos,AR,-51.6226,-69.2181,59.05,21,0,16.11,clear sky
214,Hambantota,LK,6.1241,81.1185,79.54,82,96,4.45,overcast clouds
215,La Esperanza,GT,14.8667,-91.5667,60.15,79,85,4.16,overcast clouds
216,Puerto Del Rosario,ES,28.5004,-13.8627,71.35,73,0,10.36,clear sky
217,Saint-Joseph,RE,-21.3667,55.6167,71.98,79,63,3.13,broken clouds
218,Hobyo,SO,5.3505,48.5268,81.18,69,19,14.65,few clouds
219,Cedar City,US,37.6775,-113.0619,62.4,41,1,0.0,clear sky
220,Sitka,US,57.0531,-135.33,46.29,66,75,16.11,broken clouds
221,Conner,PH,17.7964,121.3275,71.37,94,53,2.21,broken clouds
222,Lorengau,PG,-2.0226,147.2712,82.11,78,91,6.46,overcast clouds
223,Minggang,CN,32.4586,114.0486,63.12,53,100,1.77,overcast clouds
224,Severo-Kurilsk,RU,50.6789,156.125,39.25,82,8,13.82,clear sky
225,Leningradskiy,RU,69.3833,178.4167,-4.65,96,100,5.64,overcast clouds
226,Beringovskiy,RU,63.05,179.3167,10.29,95,100,18.37,light snow
227,Samarai,PG,-10.6167,150.6667,81.37,82,35,10.09,scattered clouds
228,Takoradi,GH,4.8845,-1.7554,82.29,76,77,11.61,broken clouds
229,Castro,BR,-24.7911,-50.0119,72.75,68,65,7.18,broken clouds
230,Kazuno,JP,40.1836,140.7872,45.21,90,100,2.28,overcast clouds
231,Calafell,ES,41.2,1.5683,69.08,91,100,1.68,overcast clouds
232,Dombarovskiy,RU,50.7587,59.5386,42.57,70,80,17.36,broken clouds
233,Sayyan,YE,15.1718,44.3244,58.3,46,0,13.82,clear sky
234,Plettenberg Bay,ZA,-34.0527,23.3716,60.64,91,2,1.92,clear sky
235,Ossora,RU,59.2353,163.0719,17.87,91,73,5.1,broken clouds
236,Krasnogorsk,RU,55.8225,37.3181,48.45,81,0,15.66,clear sky
237,Sisimiut,GL,66.9395,-53.6735,34.41,72,100,21.43,overcast clouds
238,Husavik,IS,66.0449,-17.3389,39.11,92,100,11.63,overcast clouds
239,Sao Joao Da Barra,BR,-21.6403,-41.0511,75.29,80,100,14.79,overcast clouds
240,Paamiut,GL,61.994,-49.6678,32.05,80,53,14.18,broken clouds
241,Kibondo,TZ,-3.5864,30.7203,72.3,50,90,2.06,overcast clouds
242,Devils Lake,US,48.1128,-98.8651,44.71,74,75,14.0,broken clouds
243,Lasa,IT,46.6166,10.7002,50.88,75,100,3.8,light rain
244,Saint-Pierre,RE,-21.3393,55.4781,73.08,77,0,3.44,clear sky
245,Broken Hill,AU,-31.95,141.4333,53.51,32,86,5.68,overcast clouds
246,Vostok,RU,46.4856,135.8833,33.85,75,100,1.68,overcast clouds
247,Atar,MR,20.5169,-13.0499,91.58,23,100,2.44,overcast clouds
248,Manokwari,ID,-0.8667,134.0833,78.04,79,78,3.6,broken clouds
249,Huainan,CN,32.6264,116.9969,62.58,58,85,5.46,light rain
250,Bathurst,AU,-33.4166,149.5806,40.82,90,0,2.98,clear sky
251,Ngunguru,NZ,-35.6167,174.5,62.17,96,100,15.17,moderate rain
252,Mikuni,JP,36.2171,136.1519,53.51,66,100,5.68,overcast clouds
253,Fredericksburg,US,38.3032,-77.4605,63.77,74,90,4.0,overcast clouds
254,Odate,JP,40.2686,140.5683,44.98,91,100,1.61,overcast clouds
255,Loviisa,FI,60.4566,26.2251,45.63,88,64,8.59,broken clouds
256,Balkanabat,TM,39.5108,54.3671,58.96,50,89,2.89,overcast clouds
257,Floresti,MD,47.8933,28.3014,50.68,56,0,10.27,clear sky
258,Conceicao Da Barra,BR,-18.5933,-39.7322,81.39,62,53,9.24,broken clouds
259,Port Hardy,CA,50.6996,-127.4199,42.8,100,20,0.0,few clouds
260,Jiexiu,CN,37.0244,111.9125,52.23,38,38,4.27,scattered clouds
261,Pevek,RU,69.7008,170.3133,1.35,94,100,8.01,overcast clouds
262,Natal,BR,-5.795,-35.2094,88.45,62,20,20.71,few clouds
263,San Ignacio,BZ,17.1561,-89.0714,82.54,61,75,4.61,broken clouds
264,Ventspils,LV,57.3894,21.5606,42.73,100,88,1.14,overcast clouds
265,Brigantine,US,39.4101,-74.3646,68.5,71,40,11.5,scattered clouds
266,Sefophe,BW,-22.1833,27.9667,79.3,69,40,10.36,thunderstorm
267,Iguatu,BR,-6.3594,-39.2986,98.76,25,58,6.33,broken clouds
268,Iskateley,RU,67.6803,53.1512,16.2,86,99,8.46,overcast clouds
269,Arman,RU,59.7,150.1667,21.36,60,99,10.0,overcast clouds
270,Makakilo City,US,21.3469,-158.0858,75.61,80,1,0.0,clear sky
271,Hasaki,JP,35.7333,140.8333,54.0,55,70,7.14,broken clouds
272,Bougouni,ML,11.417,-7.479,87.94,48,59,4.38,broken clouds
273,Ugoofaaru,MV,5.6667,73.0,81.54,74,89,8.19,overcast clouds
274,Salym,RU,60.0625,71.4789,23.31,96,100,3.31,light snow
275,Culfa,AZ,38.9558,45.6308,51.67,69,100,5.26,overcast clouds
276,Elk City,US,35.412,-99.4043,66.42,22,1,13.8,clear sky
277,Vila Velha,BR,-20.3297,-40.2925,75.15,83,75,12.66,broken clouds
278,Berani,PK,25.785,68.8069,77.09,16,1,8.16,clear sky
279,Petrozavodsk,RU,61.7849,34.3469,45.86,81,100,8.95,overcast clouds
280,Kodiak,US,57.79,-152.4072,45.91,93,90,26.46,moderate rain
281,Souillac,MU,-20.5167,57.5167,73.78,78,40,4.61,scattered clouds
282,Skibbereen,IE,51.55,-9.2667,48.0,74,94,19.01,overcast clouds
283,Kushmurun,KZ,52.4503,64.6311,38.95,94,100,20.87,light rain
284,Ilhabela,BR,-23.7781,-45.3581,70.47,92,99,10.69,overcast clouds
285,Yulara,AU,-25.2406,130.9889,58.84,88,100,5.75,overcast clouds
286,Kaitangata,NZ,-46.2817,169.8464,49.23,74,73,5.46,broken clouds
287,Fort Nelson,CA,58.8053,-122.7002,22.59,74,1,6.91,clear sky
288,Trelew,AR,-43.249,-65.3051,61.39,22,1,26.82,clear sky
289,Kawalu,ID,-7.3817,108.2082,73.0,98,100,1.77,overcast clouds
290,Grand Baie,MU,-20.0182,57.5802,73.87,81,7,4.25,clear sky
291,Corning,US,42.1428,-77.0547,54.86,99,90,0.0,overcast clouds
292,Montepuez,MZ,-13.1256,38.9997,81.79,46,47,11.61,scattered clouds
293,Priiskovyy,RU,51.9333,116.6333,23.74,52,16,3.85,few clouds
294,Aklavik,CA,68.2191,-135.0107,17.6,93,90,6.91,fog
295,Okhotsk,RU,59.3833,143.3,12.31,70,1,19.73,clear sky
296,Komsomolskiy,UZ,40.4272,71.7189,45.82,61,23,6.91,few clouds
297,San Patricio,US,28.017,-97.5169,78.89,18,0,4.99,clear sky
298,Sabha,LY,27.0377,14.4283,74.43,24,9,5.48,clear sky
299,Necochea,AR,-38.5473,-58.7368,62.04,69,71,23.76,broken clouds
300,Longyearbyen,SJ,78.2186,15.6401,17.44,86,20,10.36,few clouds
301,Corinto,GR,37.9407,22.9573,62.42,69,95,3.83,overcast clouds
302,Nanortalik,GL,60.1432,-45.2371,35.24,73,38,4.74,scattered clouds
303,Bundaberg,AU,-24.85,152.35,75.49,95,75,1.01,broken clouds
304,Ixtapa,MX,20.7,-105.2,84.22,82,4,5.01,clear sky
305,Norman Wells,CA,65.282,-126.8329,15.84,86,75,2.3,fog
306,Seminole,US,28.7086,-81.2081,74.12,68,1,1.01,clear sky
307,Basco,PH,20.4487,121.9702,80.37,67,16,16.67,few clouds
308,Ville-Marie,CA,47.3335,-79.433,42.8,48,88,7.52,overcast clouds
309,Vila Franca Do Campo,PT,37.7167,-25.4333,74.19,93,93,16.06,overcast clouds
310,Graham,US,47.0529,-122.2943,48.81,90,1,0.0,clear sky
311,Marawi,PH,7.9986,124.2928,66.65,95,62,0.98,broken clouds
312,Magistralnyy,RU,56.1725,107.4458,30.97,62,100,5.37,overcast clouds
313,Huoqiu,CN,32.3394,116.2694,62.49,60,94,5.14,light rain
314,Mogadishu,SO,2.0371,45.3438,79.57,79,4,11.72,clear sky
315,Walvis Bay,NA,-22.9575,14.5053,61.75,77,34,10.36,scattered clouds
316,Villa Del Rosario,CO,7.8339,-72.4742,84.58,58,75,9.22,broken clouds
317,Kenai,US,60.5544,-151.2583,41.14,89,90,12.66,light rain
318,Zhigansk,RU,66.7697,123.3711,-4.05,98,87,12.62,overcast clouds
319,Kikwit,CD,-5.041,18.8162,75.51,85,72,2.37,light rain
320,Havre,FR,49.5833,0.3333,55.17,71,0,12.66,clear sky
321,Rurrenabaque,BO,-14.4413,-67.5278,99.61,30,7,5.59,clear sky
322,Tateyama,JP,34.9833,139.8667,57.22,57,49,3.56,scattered clouds
323,Kavaratti,IN,10.5669,72.642,82.26,69,98,0.87,overcast clouds
324,Bara,NG,10.3744,10.7288,85.75,27,92,3.85,overcast clouds
325,Korem,ET,12.5058,39.5228,54.32,41,6,5.59,clear sky
326,Tongling,CN,30.95,117.7833,60.15,61,19,3.89,light rain
327,Te Anau,NZ,-45.4167,167.7167,46.53,93,80,7.85,broken clouds
328,Barsovo,RU,61.1667,73.1667,10.53,96,26,3.96,scattered clouds
329,Hakkari,TR,37.5833,44.1667,46.24,88,99,2.39,overcast clouds
330,Turan,VN,16.0678,108.2208,77.05,94,75,3.44,broken clouds
331,Kapit,MY,2.0167,112.9333,74.91,98,100,0.22,overcast clouds
332,Kuminskiy,RU,58.6667,66.5667,26.31,96,100,2.33,light snow
333,Ridgecrest,US,35.6225,-117.6709,70.65,33,1,3.09,clear sky
334,Hervey Bay,AU,-25.2986,152.8535,75.31,86,60,7.56,broken clouds
335,Ketchikan,US,55.3422,-131.6461,37.87,100,40,0.0,scattered clouds
336,Mataram,ID,-8.5833,116.1167,79.61,85,100,4.43,overcast clouds
337,Lazaro Cardenas,MX,17.9583,-102.2,83.77,67,5,0.72,clear sky
338,Craig,US,40.5153,-107.5464,52.79,61,1,0.0,clear sky
339,Nelson Bay,AU,-32.7167,152.15,62.01,72,100,1.99,overcast clouds
340,Tiksi,RU,71.6872,128.8694,-2.87,97,100,6.62,overcast clouds
341,Menongue,AO,-14.6585,17.691,69.42,78,94,3.22,light rain
342,Cape Coast,GH,5.1053,-1.2466,81.01,81,62,13.47,broken clouds
343,Mayumba,GA,-3.432,10.6554,78.01,88,95,10.16,light rain
344,Saint-Augustin,CA,51.226,-58.6502,52.5,32,5,6.85,clear sky
345,Agadez,NE,19.75,10.25,85.75,17,28,9.93,scattered clouds
346,Funadhoo,MV,6.15,73.2667,81.01,78,93,8.41,overcast clouds
347,Santa Marta De Tormes,ES,40.9506,-5.6272,59.45,83,40,3.44,scattered clouds
348,Santa Rosa,PH,14.3122,121.1114,81.09,75,9,11.63,clear sky
349,Sibolga,ID,1.7427,98.7792,76.84,89,100,2.86,heavy intensity rain
350,Ukiah,US,39.1502,-123.2078,63.45,89,40,9.22,scattered clouds
351,Baker City,US,44.7749,-117.8344,50.65,81,1,5.75,clear sky
352,Oranjemund,NA,-28.55,16.4333,63.72,80,4,14.16,clear sky
353,Khatanga,RU,71.9667,102.5,-0.49,97,99,2.06,overcast clouds
354,Les Escoumins,CA,48.1111,-69.0236,42.15,54,38,3.94,scattered clouds
355,Flin Flon,CA,54.7682,-101.865,39.04,65,90,13.8,overcast clouds
356,Zhangjiakou,CN,40.81,114.8794,42.13,55,60,7.07,broken clouds
357,Srednekolymsk,RU,67.45,153.6833,-7.53,99,100,3.44,overcast clouds
358,Qaqortoq,GL,60.7167,-46.0333,32.5,76,44,2.84,scattered clouds
359,Stutterheim,ZA,-32.5708,27.424,54.23,89,56,4.92,broken clouds
360,Ulan-Ude,RU,51.8261,107.6098,17.49,86,9,4.47,clear sky
361,Alofi,NU,-19.0595,-169.9187,73.29,83,100,3.44,light rain
362,Dingle,PH,10.9995,122.6711,75.22,92,82,7.81,broken clouds
363,Altay,CN,47.8667,88.1167,36.81,69,89,5.77,overcast clouds
364,Benguela,AO,-12.5763,13.4055,76.48,73,88,4.05,light rain
365,Piracanjuba,BR,-17.3028,-49.0167,91.92,29,100,3.89,overcast clouds
366,Eureka,US,40.8021,-124.1637,61.41,97,66,3.0,broken clouds
367,Goderich,CA,43.7501,-81.7165,50.92,76,100,5.75,overcast clouds
368,Baicheng,CN,45.6167,122.8167,36.61,34,100,16.96,overcast clouds
369,Broome,US,42.2506,-75.833,55.71,80,90,1.99,overcast clouds
370,Cordoba,AR,-31.4135,-64.1811,97.75,15,40,12.66,light rain
371,Port-Gentil,GA,-0.7193,8.7815,82.36,78,40,14.97,light rain
372,Severomuysk,RU,56.1481,113.4267,10.85,69,98,2.17,overcast clouds
373,Dauphin,CA,51.1494,-100.0502,44.74,57,1,12.66,clear sky
374,Yarmouth,US,41.7057,-70.2286,63.97,88,90,13.0,overcast clouds
375,Karlskrona,SE,56.1616,15.5866,48.65,85,87,7.31,overcast clouds
376,Victoria,HK,22.2855,114.1577,76.32,83,73,1.01,broken clouds
377,Taywarah,AF,33.35,64.4167,39.25,27,0,3.33,clear sky
378,Kirakira,SB,-10.4544,161.9205,81.36,75,98,11.14,overcast clouds
379,Anadyr,RU,64.75,177.4833,3.7,84,75,13.0,light snow
380,Mwinilunga,ZM,-11.7358,24.4293,71.78,62,84,3.38,broken clouds
381,Binika,IN,21.0333,83.8,76.15,74,73,1.34,broken clouds
382,Cardona,PH,14.45,121.2167,79.65,59,8,9.62,clear sky
383,San Vicente,AR,-26.6167,-54.1333,79.12,63,100,4.34,moderate rain
384,Teahupoo,PF,-17.8333,-149.2667,71.56,75,38,15.61,light rain
385,Alexandria,EG,31.2156,29.9553,73.94,73,20,8.05,few clouds
386,Tazovskiy,RU,67.4667,78.7,13.98,94,100,13.89,light snow
387,Padang,ID,-0.9492,100.3543,75.25,89,100,2.73,overcast clouds
388,Vammala,FI,61.3333,22.9,47.64,94,66,7.74,broken clouds
389,Fallon,US,39.4735,-118.7774,59.27,82,90,5.75,overcast clouds
390,Thompson,CA,55.7435,-97.8558,35.76,80,20,10.36,few clouds
391,Inirida,CO,3.8653,-67.9239,87.78,65,87,2.24,overcast clouds
392,Svobodnyy,RU,51.4,128.1333,26.65,48,0,6.31,clear sky
393,Phan Thiet,VN,10.9333,108.1,77.29,89,18,7.81,few clouds
394,Grindavik,IS,63.8424,-22.4338,42.75,93,0,8.05,clear sky
395,Semporna,MY,4.4818,118.6112,75.4,83,50,1.59,scattered clouds
396,Aksarka,RU,66.5606,67.7975,-0.74,93,43,6.89,scattered clouds
397,Chipinge,ZW,-20.1883,32.6236,72.34,38,3,6.04,clear sky
398,Karaton,ID,-6.3424,106.1045,77.16,96,98,3.18,overcast clouds
399,Ondangwa,NA,-17.9167,15.95,93.2,17,37,5.75,scattered clouds
400,San Cristobal,VE,7.7669,-72.225,78.98,81,100,4.03,overcast clouds
401,Havoysund,NO,70.9963,24.6622,36.48,69,80,2.98,broken clouds
402,La Ronge,CA,55.1001,-105.2842,34.05,86,90,5.75,light rain
403,Ust-Kut,RU,56.7938,105.7672,34.3,58,100,5.03,overcast clouds
404,Valera,VE,9.3178,-70.6036,81.09,72,92,2.06,overcast clouds
405,Djambala,CG,-2.5447,14.7533,72.21,82,99,2.19,overcast clouds
406,High Level,CA,58.5169,-117.136,30.31,74,20,4.61,few clouds
407,Salisbury,GB,51.0693,-1.7957,53.67,81,40,6.91,scattered clouds
408,Praia Da Vitoria,PT,38.7333,-27.0667,75.45,78,40,14.41,scattered clouds
409,Codrington,AU,-38.2667,141.9667,42.03,94,1,7.76,clear sky
410,Rostovka,RU,55.3842,71.8891,28.15,76,100,12.62,overcast clouds
411,Auki,SB,-8.7676,160.7034,77.52,89,79,4.32,broken clouds
412,Sorland,NO,67.667,12.6934,48.87,93,100,18.28,overcast clouds
413,Yar-Sale,RU,66.8333,70.8333,11.7,89,100,18.72,overcast clouds
414,Kadirli,TR,37.3739,36.0961,64.33,74,89,7.63,overcast clouds
415,Sola,VU,-13.8833,167.55,80.8,70,2,17.16,clear sky
416,Kieta,PG,-6.2167,155.6333,78.66,83,90,4.21,light rain
417,Pangnirtung,CA,66.1451,-65.7125,37.4,81,90,16.11,moderate rain
418,Sao Francisco Do Sul,BR,-26.2433,-48.6381,76.1,83,75,6.91,mist
419,Launceston,AU,-41.45,147.1667,47.8,88,40,1.99,scattered clouds
420,Trincomalee,LK,8.5711,81.2335,81.72,78,100,8.19,overcast clouds
421,Vigrestad,NO,58.5667,5.7,56.88,86,100,27.96,light rain
422,Lata,PT,40.1629,-8.3327,64.04,92,100,2.21,overcast clouds
423,Dunedin,NZ,-45.8742,170.5036,50.49,82,0,4.36,clear sky
424,Ushirombo,TZ,-3.4919,31.9639,75.29,53,79,2.98,broken clouds
425,Kruisfontein,ZA,-34.0033,24.7314,59.88,88,2,5.61,clear sky
426,Esperance,AU,-33.8667,121.9,56.43,72,2,16.62,clear sky
427,Lavrentiya,RU,65.5833,-171.0,10.13,76,63,5.7,broken clouds
428,Luwuk,ID,-0.9516,122.7875,77.14,87,68,3.22,broken clouds
429,Lincoln Park,US,42.2506,-83.1785,54.45,91,90,1.01,overcast clouds
430,Bonfim,BR,3.0833,-59.95,94.17,40,20,2.46,few clouds
431,Kilindoni,TZ,-7.9139,39.6668,79.21,77,17,10.63,few clouds
432,Maragogi,BR,-9.0122,-35.2225,81.73,59,9,8.5,clear sky
433,San Pedro,PH,14.35,121.0167,80.31,77,20,2.3,few clouds
434,Labytnangi,RU,66.6572,66.4183,-0.27,91,16,5.26,few clouds
435,Ushtobe,KZ,45.2514,77.9838,47.91,53,100,4.56,overcast clouds
436,Araouane,ML,18.9048,-3.5265,95.38,16,100,8.43,overcast clouds
437,Port Moresby,PG,-9.4431,147.1797,74.62,94,20,8.05,few clouds
438,Antalaha,MG,-14.9003,50.2788,73.81,85,11,8.14,few clouds
439,Chernenko,RU,44.365,39.3103,44.92,81,0,3.6,clear sky
440,Honningsvag,NO,70.9821,25.9704,42.12,62,77,4.65,broken clouds
441,Pastos Bons,BR,-6.6017,-44.0767,92.57,35,55,10.71,broken clouds
442,Mount Isa,AU,-20.7333,139.5,76.77,20,91,12.66,overcast clouds
443,Youkounkoun,GN,12.5333,-13.1333,76.64,86,100,4.99,light rain
444,Wasilla,US,61.5814,-149.4394,44.02,73,20,7.0,light rain
445,Birin,NP,26.8865,88.0718,53.42,86,24,2.71,few clouds
446,Flinders,AU,-34.5833,150.8552,52.21,80,18,1.01,few clouds
447,Nyuksenitsa,RU,60.4128,44.2397,44.06,90,100,7.25,overcast clouds
448,Acajutla,SV,13.5928,-89.8275,91.74,61,92,4.5,overcast clouds
449,Deputatskiy,RU,69.3,139.9,-8.97,99,89,5.79,overcast clouds
450,San Andres,CO,12.5847,-81.7006,87.82,74,75,8.05,broken clouds
451,Becerril,CO,9.7041,-73.2793,84.25,71,98,4.09,overcast clouds
452,Hirado,JP,33.3597,129.5531,61.36,78,55,7.99,broken clouds
453,Port Augusta,AU,-32.5,137.7667,57.34,49,72,6.93,broken clouds
454,Calabozo,VE,8.9242,-67.4293,87.03,61,80,3.31,broken clouds
455,Sorong,ID,-0.8833,131.25,78.76,85,70,5.21,broken clouds
456,Great Yarmouth,GB,52.6083,1.7305,53.24,75,81,12.71,broken clouds
457,Namibe,AO,-15.1961,12.1522,68.9,77,77,12.24,broken clouds
458,Cayenne,GF,4.9333,-52.3333,89.64,74,74,7.0,broken clouds
459,Staryy Oskol,RU,51.2967,37.8417,45.28,75,2,4.74,clear sky
460,Kupang,ID,-10.1667,123.5833,79.65,81,100,6.38,overcast clouds
461,Aksu,CN,41.1231,80.2644,47.7,47,7,3.96,clear sky
462,Ayia Galini,GR,35.1,24.6833,63.99,75,100,3.65,overcast clouds
463,Narsaq,GL,60.9167,-46.05,32.22,69,48,3.42,scattered clouds
464,Kichera,RU,55.9375,110.0997,22.82,71,98,2.86,overcast clouds
465,Labuan,MY,5.2767,115.2417,79.16,83,20,0.0,few clouds
466,Buta,CD,2.7858,24.73,71.04,94,79,0.45,light rain
467,Pangkalanbuun,ID,-2.6833,111.6167,75.31,94,85,2.39,overcast clouds
468,Talcahuano,CL,-36.7167,-73.1167,64.08,59,0,12.66,clear sky
469,Atambua,ID,-9.1061,124.8925,77.11,80,100,1.03,overcast clouds
470,Progreso,MX,21.2833,-89.6667,84.31,50,10,11.48,clear sky
471,Senanga,ZM,-16.1167,23.2667,82.83,38,56,6.4,broken clouds
472,Berlevag,NO,70.8578,29.0864,38.46,78,84,6.51,broken clouds
473,Ilmenau,DE,50.6833,10.9,51.28,70,100,3.0,overcast clouds
474,Hofu,JP,34.05,131.5667,64.29,94,90,5.75,overcast clouds
475,Kudahuvadhoo,MV,2.6708,72.8944,82.62,76,21,13.13,few clouds
476,Yaan,NG,7.3833,8.5667,82.96,68,99,2.46,overcast clouds
477,Airai,TL,-8.9266,125.4092,62.71,91,99,0.67,overcast clouds
478,Pozo Colorado,PY,-23.4923,-58.7972,72.73,91,100,7.31,light rain
479,Chapleau,CA,47.8405,-83.4034,51.89,50,20,8.05,few clouds
480,Avera,US,33.194,-82.5271,63.37,58,64,13.62,broken clouds
481,Akyab,MM,20.15,92.9,79.86,78,5,5.28,clear sky
482,Boden,SE,65.8252,21.6886,41.0,100,100,3.65,moderate rain
483,Levelland,US,33.5873,-102.378,74.19,16,0,14.32,clear sky
484,Sungurlu,TR,40.1675,34.3739,50.05,58,7,2.64,clear sky
485,Puertollano,ES,38.6871,-4.1073,63.09,90,100,15.66,light rain
486,Mhlume,SZ,-26.0333,31.85,67.86,84,74,9.93,light rain
487,Qena,EG,26.1615,32.7183,86.11,19,82,7.05,broken clouds
488,Pizarro,CO,4.9533,-77.366,79.16,84,91,7.58,light rain
489,Sehithwa,BW,-20.4667,22.7167,85.1,36,73,9.73,broken clouds
490,Atlantic City,US,39.3643,-74.4229,68.38,69,40,11.5,scattered clouds
491,Yuli,NG,9.6989,10.2744,86.32,27,100,3.58,overcast clouds
492,Tiznit,MA,29.5833,-9.5,72.05,42,0,7.16,clear sky
493,Bull Savanna,JM,17.8868,-77.5902,82.67,70,92,9.57,light rain
494,Olafsvik,IS,64.8945,-23.7142,42.6,88,55,17.11,broken clouds
495,Caravelas,BR,-17.7125,-39.2481,81.99,61,42,9.93,scattered clouds
496,Sao Cristovao,BR,-11.0147,-37.2064,82.31,69,20,11.5,few clouds
497,Tongchuan,CN,35.0806,109.0897,56.08,56,91,4.94,light rain
498,Fare,PF,-16.7,-151.0167,77.47,73,23,17.9,light rain
499,Kafanchan,NG,9.5833,8.3,74.48,61,100,1.25,overcast clouds
500,Antofagasta,CL,-23.65,-70.4,72.21,49,1,7.45,clear sky
501,Gryfino,PL,53.2524,14.4883,53.56,67,97,7.96,overcast clouds
502,Nago,JP,26.5881,127.9761,73.56,72,9,7.02,clear sky
503,Palmer,US,42.1584,-72.3287,61.68,82,90,1.01,moderate rain
504,Maniitsoq,GL,65.4167,-52.9,36.01,85,100,25.57,overcast clouds
505,Timizart,DZ,36.8,4.2667,68.29,45,100,1.25,overcast clouds
506,Inverell,AU,-29.7833,151.1167,49.15,67,17,1.01,few clouds
507,Roccastrada,IT,43.0099,11.1665,61.75,75,98,1.03,overcast clouds
508,Cooma,AU,-36.2333,149.1333,29.97,100,12,0.0,few clouds
509,Batagay-Alyta,RU,67.8006,130.4114,-13.45,87,27,4.85,scattered clouds
510,Jalu,LY,29.0331,21.5482,74.88,32,3,6.51,clear sky
511,Moscow,RU,55.7522,37.6156,48.63,81,66,9.86,broken clouds
512,Thunder Bay,CA,48.4001,-89.3168,49.55,94,90,0.0,overcast clouds
513,Inhambane,MZ,-23.865,35.3833,71.98,69,42,13.42,scattered clouds
514,Vyshestebliyevskaya,RU,45.1961,37.0181,50.43,63,0,17.45,clear sky
515,Moerai,PF,-22.4333,-151.3333,71.82,60,10,16.11,clear sky
516,Khanpur,PK,28.6453,70.6567,76.55,15,0,2.15,clear sky
517,Muros,ES,42.7762,-9.0603,64.83,84,100,9.55,overcast clouds
518,Roald,NO,62.5833,6.1333,51.1,66,0,8.05,clear sky
519,Staroaleyskoye,RU,51.0061,82.0,38.01,57,100,4.85,overcast clouds
520,Ilulissat,GL,69.2167,-51.1,33.82,75,75,8.05,broken clouds
521,Fortuna Foothills,US,32.6578,-114.4119,78.85,29,1,1.01,clear sky
522,Yerofey Pavlovich,RU,53.9667,121.9667,21.0,58,16,2.01,few clouds
523,Qui Nhon,VN,13.7667,109.2333,76.41,90,41,6.29,scattered clouds
524,Dolores,AR,-36.3132,-57.6792,81.34,54,5,8.48,clear sky
525,Baruun-Urt,MN,46.6806,113.2792,22.95,39,85,3.27,overcast clouds
526,Chai Nat,TH,15.1167,100.1,75.54,93,91,3.65,overcast clouds
527,Xam Nua,LA,20.4197,104.0439,63.81,100,100,1.74,overcast clouds
528,Morant Bay,JM,17.8815,-76.4093,87.62,77,77,7.4,broken clouds
529,Gushikawa,JP,26.3544,127.8686,72.63,88,1,0.0,clear sky
530,Berezovyy,RU,51.6667,135.7,26.83,85,93,3.02,overcast clouds
531,Hofn,IS,64.2539,-15.2082,42.76,87,100,13.67,light rain
532,Svetlogorsk,BY,52.6333,29.7333,47.34,61,5,10.2,clear sky
533,Tahta,EG,26.7693,31.5021,86.11,24,100,7.43,overcast clouds
534,Nuzvid,IN,16.7833,80.85,75.65,93,93,4.7,overcast clouds
535,Taltal,CL,-25.4,-70.4833,67.95,61,19,7.43,few clouds
536,Doka,SD,13.5167,35.7667,86.22,33,39,1.52,scattered clouds
537,Labuhan,ID,-6.8844,112.2051,82.22,77,100,2.33,light rain
538,Puerto Ayacucho,VE,5.6639,-67.6236,85.3,70,92,3.98,overcast clouds
539,Santa Fe,AR,-31.6333,-60.7,96.98,34,4,4.0,clear sky
540,Casper,US,42.8666,-106.3131,41.0,87,90,8.01,overcast clouds
541,Beyneu,KZ,45.3167,55.2,52.61,55,6,1.28,clear sky
542,Usinsk,RU,65.9939,57.5281,5.54,95,66,9.22,broken clouds
543,Axim,GH,4.8699,-2.2405,81.3,77,69,9.35,broken clouds
544,Champerico,GT,14.3,-91.9167,86.36,72,82,4.88,broken clouds
545,Biltine,TD,14.5333,20.9167,90.34,13,86,8.66,overcast clouds
546,Novikovo,RU,51.1537,37.8879,45.16,75,2,4.45,clear sky
547,Cockburn Town,TC,21.4612,-71.1419,84.16,65,40,12.66,scattered clouds
548,Warrington,GB,53.3925,-2.5802,51.91,79,20,4.0,few clouds
549,Haines Junction,CA,60.7522,-137.5108,35.55,64,100,9.22,overcast clouds
550,Aginskoye,RU,51.1,114.53,23.2,32,10,3.87,clear sky
551,Dhing,IN,26.4667,92.4667,73.22,67,62,3.24,broken clouds
552,Markala,ML,13.7021,-6.0659,92.25,31,98,7.09,overcast clouds
553,Kijang,KR,35.2442,129.2139,51.53,66,5,5.03,clear sky
554,Kaabong,UG,3.4836,34.1492,74.39,46,93,18.34,overcast clouds
555,Talavera,PH,15.6167,120.9333,73.6,89,40,1.99,scattered clouds
556,Kizukuri,JP,40.8061,140.3861,44.11,94,100,3.0,overcast clouds
557,Matadi,CD,-5.8167,13.45,83.1,74,80,8.28,light rain
558,Jumla,NP,29.2747,82.1838,44.29,82,3,3.85,clear sky
559,Jijiga,ET,9.35,42.8,63.73,69,19,15.73,few clouds
560,Peru,US,40.7537,-86.0689,54.12,87,90,13.8,overcast clouds
561,Yermakovskoye,RU,53.2831,92.4003,38.93,72,100,5.41,light rain
562,Adrar,MR,20.5022,-10.0711,88.18,13,100,6.98,overcast clouds
563,Urucara,BR,-2.5364,-57.76,99.59,32,24,2.93,few clouds
564,Ialibu,PG,-6.2821,143.9935,54.27,97,100,3.0,overcast clouds
565,Amapa,BR,1.0,-52.0,84.34,68,42,3.2,scattered clouds
566,Sheffield,GB,53.383,-1.4659,51.57,83,8,1.99,clear sky
567,Gizo,SB,-8.103,156.8419,82.24,77,38,6.2,light rain
568,Karratha,AU,-20.7377,116.8463,72.91,67,0,7.0,light rain
569,Comodoro Rivadavia,AR,-45.8667,-67.5,51.66,58,40,11.5,scattered clouds
570,Verkhoyansk,RU,67.5447,133.385,-12.77,99,43,2.48,scattered clouds
571,Vila,PT,42.0304,-8.1588,54.34,89,100,5.37,overcast clouds
572,Da Nang,VN,16.0678,108.2208,77.05,94,75,3.44,broken clouds
573,Ust-Omchug,RU,61.15,149.6333,7.23,95,100,7.74,overcast clouds
574,Alta Floresta,BR,-9.8756,-56.0861,91.22,58,20,4.61,few clouds
575,Neiafu,TO,-18.65,-173.9833,75.88,73,75,8.05,broken clouds
576,Xining,CN,36.6167,101.7667,36.86,59,98,2.48,overcast clouds
577,Villarrica,PY,-25.75,-56.4333,81.45,63,100,5.35,moderate rain
578,Angoram,PG,-4.0625,144.0661,74.43,99,49,1.52,scattered clouds
579,Prince Rupert,CA,54.3161,-130.3201,44.29,75,100,14.97,overcast clouds
580,Nador,MA,35.174,-2.9287,73.47,53,0,8.05,clear sky
581,Ngama,TD,11.7833,17.1667,92.52,16,82,5.86,broken clouds
582,Rucheng,CN,32.3883,120.5553,60.98,75,4,2.98,light rain
583,Ust-Maya,RU,60.4167,134.5333,-4.68,100,44,1.99,scattered clouds
584,Vytegra,RU,61.0064,36.4481,43.9,90,100,6.06,overcast clouds
585,Emerald,AU,-23.5333,148.1667,80.74,31,57,17.27,broken clouds
586,Atbasar,KZ,51.8,68.3333,39.56,71,100,19.71,overcast clouds
587,Nhulunbuy,AU,-12.2333,136.7667,79.41,83,93,0.0,overcast clouds
588,Caldelas,PT,41.671,-8.3815,64.71,90,98,2.98,overcast clouds
589,Umm Lajj,SA,25.0213,37.2685,83.84,51,51,9.24,broken clouds
590,Winchester,GB,51.0651,-1.3187,54.52,84,40,4.61,scattered clouds
591,Pringsewu,ID,-5.3582,104.9744,75.42,96,81,2.3,broken clouds
592,Jining,CN,35.405,116.5814,59.76,57,28,2.44,light rain
593,Huescar,ES,37.811,-2.5412,67.12,88,100,14.99,overcast clouds
594,Ihosy,MG,-22.4,46.1167,66.29,77,78,8.81,broken clouds
595,Stilfontein,ZA,-26.8449,26.7683,68.95,24,0,6.82,clear sky
596,Chardara,KZ,41.2547,67.9692,54.55,52,100,10.29,overcast clouds
597,Puri,IN,19.8,85.85,75.72,72,34,6.8,scattered clouds
598,Damara,CF,4.9608,18.7035,89.02,95,89,3.11,moderate rain
599,Kjollefjord,NO,70.9457,27.3465,38.21,75,85,2.66,overcast clouds
600,Gladstone,AU,-23.85,151.25,75.78,88,90,0.0,overcast clouds
601,Barkhera,IN,28.45,79.8,66.38,54,0,3.53,clear sky
602,Columbus,US,39.9612,-82.9988,60.51,88,75,6.91,broken clouds
603,Chegem,RU,43.2833,43.1333,23.13,85,41,7.94,scattered clouds
604,Kozhva,RU,65.1073,57.0459,12.02,96,37,3.11,scattered clouds
605,Moanda,GA,-1.5575,13.2178,82.63,93,88,2.42,light rain
606,Rawdon,CA,46.0501,-73.7159,50.65,77,100,8.01,overcast clouds
607,Payson,US,40.0444,-111.7321,64.02,54,75,1.99,broken clouds
608,Grimshaw,CA,56.1834,-117.6027,33.03,51,1,13.8,clear sky
609,Bambanglipuro,ID,-7.95,110.2833,77.92,90,100,3.47,overcast clouds
610,Puerto Narino,CO,-3.7703,-70.3831,90.43,52,53,4.79,broken clouds
611,Majene,ID,-3.5403,118.9707,77.2,90,100,7.45,light rain
612,Roebourne,AU,-20.7833,117.1333,72.64,65,0,7.63,clear sky
613,Merrill,US,45.1805,-89.6835,54.59,79,75,4.61,broken clouds
614,Mackenzie,CA,55.2999,-123.1698,23.22,93,1,4.61,clear sky
615,Guerrero Negro,MX,27.9769,-114.0611,71.83,61,0,5.97,clear sky
616,Terney,RU,45.0503,136.6092,45.36,62,98,8.01,overcast clouds
617,Nicoya,CR,10.1483,-85.452,81.95,83,100,2.17,overcast clouds
618,Pangai,TO,-19.8,-174.35,76.62,70,64,17.18,broken clouds
619,Daru,PG,-9.0763,143.2092,78.62,89,93,8.03,overcast clouds
620,Shenjiamen,CN,29.9576,122.298,63.66,83,0,9.69,clear sky
621,Pembroke,CA,45.8168,-77.1162,48.18,79,100,5.97,overcast clouds
622,Big Spring,US,32.2504,-101.4787,78.28,17,1,5.99,clear sky
623,Kade,DE,52.3833,12.2667,54.21,66,91,6.02,overcast clouds
624,Srandakan,ID,-7.9386,110.2506,78.08,90,100,3.47,overcast clouds
625,Muisne,EC,0.6,-80.0333,82.51,69,51,9.04,broken clouds
626,Erdenet,MN,49.0333,104.0833,28.13,71,39,4.74,scattered clouds
627,Senno,RU,59.5336,33.9167,43.27,93,100,6.78,overcast clouds
628,Bawku,GH,11.0616,-0.2417,97.07,21,69,3.04,broken clouds
629,Shizuishan,CN,39.2333,106.7694,42.35,44,0,5.61,clear sky
630,Edmonds,US,47.8107,-122.3774,50.34,81,1,5.01,clear sky
631,Macklin,CA,52.3334,-109.9348,33.13,44,0,13.6,clear sky
632,Dickinson,US,29.4608,-95.0513,72.21,36,1,5.99,clear sky
633,Senador Jose Porfirio,BR,-2.5908,-51.9542,92.08,45,14,2.93,few clouds
634,Kalnibolotskaya,RU,46.0058,40.4568,49.33,63,0,12.68,clear sky
635,Palma,ES,39.5694,2.6502,71.4,84,40,1.01,light rain
636,Cabinda,AO,-5.55,12.2,78.73,85,94,11.03,overcast clouds
637,Swan River,CA,52.1058,-101.2676,37.29,70,14,14.97,few clouds
638,Sandviken,SE,60.6167,16.7667,47.7,91,77,4.52,broken clouds
639,San Isidro,PE,-12.1167,-77.05,68.5,52,90,3.0,overcast clouds
640,Guadalupe Y Calvo,MX,26.1,-106.9667,64.38,35,0,5.77,clear sky
641,Opuwo,NA,-18.0607,13.84,85.26,18,62,18.52,broken clouds
642,Keetmanshoop,NA,-26.5833,18.1333,83.32,15,0,7.02,clear sky
643,Faanui,PF,-16.4833,-151.75,78.39,69,15,17.49,few clouds
644,Harper,LR,4.375,-7.7169,79.36,81,100,7.14,light rain
645,Sri Aman,MY,1.2376,111.4621,75.25,97,99,0.0,overcast clouds
646,Grand Gaube,MU,-20.0064,57.6608,73.8,82,5,1.01,clear sky
647,Jilikul,TJ,37.4917,68.5311,52.92,30,1,4.38,clear sky
648,Aykhal,RU,66.0,111.5,12.56,99,100,6.62,overcast clouds
649,Kendari,ID,-3.945,122.4989,74.89,94,56,2.28,broken clouds
650,Cosamaloapan,MX,18.3667,-95.8,79.84,62,69,0.51,broken clouds
651,Gobabis,NA,-22.45,18.9667,85.41,11,0,13.76,clear sky
652,Yumen,CN,40.2833,97.2,40.53,39,8,7.25,clear sky
653,Malavalli,IN,12.3833,77.0833,70.83,93,100,5.57,overcast clouds
654,Ahuimanu,US,21.4447,-157.8378,73.45,81,1,0.0,clear sky
655,Zhumadian,CN,32.9794,114.0294,62.17,58,95,3.78,overcast clouds
656,Ucluelet,CA,48.9329,-125.5528,43.11,61,83,5.61,broken clouds
657,Almaznyy,RU,48.0448,40.045,46.54,65,0,5.21,clear sky
658,Shelburne,CA,44.0787,-80.2041,45.75,99,100,10.33,overcast clouds
659,Rouvroy,FR,50.3925,2.904,53.91,89,100,9.73,overcast clouds
660,Knysna,ZA,-34.0363,23.0471,62.98,91,0,2.75,clear sky
661,Tuatapere,NZ,-46.1333,167.6833,48.76,81,64,8.81,broken clouds
662,Richards Bay,ZA,-28.783,32.0377,65.34,83,98,10.31,overcast clouds
663,Zenzeli,RU,45.9241,47.0474,49.73,66,0,5.26,clear sky
664,Malgrat De Mar,ES,41.6466,2.7414,69.96,86,97,4.83,overcast clouds
665,Zhuzhou,CN,27.8333,113.15,59.13,81,38,2.35,scattered clouds
666,Cocorit,MX,27.5833,-109.9667,82.74,42,0,7.09,clear sky
667,Kushiro,JP,42.975,144.3747,45.66,82,56,2.24,broken clouds
668,Hamilton,US,39.1834,-84.5333,57.11,96,90,1.01,mist
669,Maraa,BR,-1.8333,-65.3667,96.46,39,53,2.82,broken clouds
670,Khasan,RU,42.4308,130.6434,50.13,75,37,5.41,scattered clouds
671,Gracac,HR,44.3006,15.8547,53.38,64,1,1.28,clear sky
672,Buchanan,LR,5.8808,-10.0467,78.76,80,87,7.87,light rain
673,Hue,VN,16.4667,107.6,77.11,100,75,3.44,broken clouds
674,Porto Walter,BR,-8.2686,-72.7439,99.16,33,16,2.91,few clouds
675,Noumea,NC,-22.2763,166.4572,73.0,99,5,5.06,clear sky
676,Fairview,US,40.8126,-73.999,67.73,69,20,5.75,few clouds
677,Cortes,ES,41.9395,-1.4396,66.43,77,97,6.76,overcast clouds
678,Pogar,RU,52.554,33.2591,44.46,80,7,8.12,clear sky
679,Buala,SB,-8.145,159.5921,80.26,84,97,8.5,light rain
680,Okha,RU,53.5739,142.9478,29.98,57,91,18.25,overcast clouds
681,Pampas,PE,-12.4,-74.9,65.1,41,30,9.24,scattered clouds
682,Nizwa,OM,22.9333,57.5333,80.46,31,0,2.21,clear sky
683,Nueva Loja,EC,0.0847,-76.8828,80.08,51,69,2.64,moderate rain
684,Bowen,AU,-20.0167,148.2333,71.82,83,9,4.99,clear sky
685,Salta,AR,-24.7859,-65.4117,90.19,35,40,5.99,scattered clouds
686,Sobolevo,RU,54.4299,31.8996,46.9,84,33,10.63,scattered clouds
687,Mazamari,PE,-11.3258,-74.5308,93.79,37,12,3.96,few clouds
688,Youghal,IE,51.95,-7.8506,53.02,94,58,12.75,broken clouds
689,Stege,DK,54.987,12.2846,53.06,71,100,20.33,overcast clouds
690,Verkhnevilyuysk,RU,63.4453,120.3167,16.3,83,90,7.36,overcast clouds
691,Milevsko,CZ,49.4509,14.36,50.13,62,24,3.96,few clouds
692,Balabac,PH,7.9868,117.0645,82.29,80,73,9.71,broken clouds
693,Norilsk,RU,69.3535,88.2027,19.26,96,100,2.26,light snow
694,Mehamn,NO,71.0357,27.8492,36.55,77,82,4.0,broken clouds
695,Daura,NG,11.5538,11.4085,89.56,16,100,8.25,overcast clouds
696,Great Bend,US,38.3645,-98.7648,70.03,33,1,4.0,clear sky
697,Oktyabrskiy,RU,54.4815,53.471,44.04,91,100,11.05,overcast clouds
698,Mimongo,GA,-1.6195,11.6068,72.63,93,98,1.57,light rain
699,Hammerfest,NO,70.6634,23.6821,36.05,80,75,1.14,broken clouds
700,Raytown,US,39.0086,-94.4636,58.82,72,1,1.01,clear sky
701,Polunochnoye,RU,60.8697,60.4153,18.27,98,87,3.56,overcast clouds
702,Gurupa,BR,-1.405,-51.64,91.02,48,84,3.27,broken clouds
703,Tautira,PF,-17.7333,-149.15,77.02,76,34,15.19,light rain
704,Taoudenni,ML,22.6783,-3.9836,93.67,19,55,2.51,broken clouds
705,Thinadhoo,MV,0.5333,72.9333,83.3,76,68,14.81,broken clouds
706,Boysun,UZ,38.2061,67.1986,49.23,20,32,5.01,scattered clouds
